City_ID,City,Country,Lat,Lng,Max Temp,Humidity,Cloudiness,Wind Speed,Current Description
0,East London,ZA,-33.0153,27.9116,54.88,63,86,29.37,light rain
1,Cabo San Lucas,MX,22.8909,-109.9124,88.9,74,40,11.5,scattered clouds
2,Qaanaaq,GL,77.484,-69.3632,40.32,88,98,7.87,overcast clouds
3,Pangnirtung,CA,66.1451,-65.7125,42.3,93,100,2.71,overcast clouds
4,Chuy,UY,-33.6971,-53.4616,58.39,87,2,9.95,clear sky
5,Ciudad Bolivar,VE,8.1222,-63.5497,78.69,82,79,2.44,broken clouds
6,Renqiu,CN,38.6989,116.0936,82.62,79,96,3.33,overcast clouds
7,New Norfolk,AU,-42.7826,147.0587,54.9,87,61,4.76,moderate rain
8,Hanstholm,DK,57.1167,8.6167,65.3,79,100,10.76,overcast clouds
9,Bethel,US,41.3712,-73.414,73.36,63,0,0.0,clear sky
10,Ushuaia,AR,-54.8,-68.3,37.06,81,100,9.22,light rain
11,Mar Del Plata,AR,-38.0023,-57.5575,56.08,96,100,24.0,thunderstorm with light rain
12,Punta Arenas,CL,-53.15,-70.9167,35.71,87,40,9.22,scattered clouds
13,Kapaa,US,22.0752,-159.319,83.12,65,0,11.5,clear sky
14,Hukuntsi,BW,-24.0,21.75,43.32,54,4,8.37,clear sky
15,Gamba,GA,-2.65,10.0,67.86,92,1,4.61,clear sky
16,Kijang,KR,35.2442,129.2139,89.33,71,79,19.62,broken clouds
17,Hilo,US,19.7297,-155.09,84.27,63,75,8.05,broken clouds
18,Hasaki,JP,35.7333,140.8333,88.29,78,86,3.67,overcast clouds
19,Saint-Philippe,RE,-21.3585,55.7679,66.22,73,42,13.73,scattered clouds
20,Butaritari,KI,3.0707,172.7902,81.97,76,37,13.87,scattered clouds
21,Kuito,AO,-12.3833,16.9333,52.72,27,44,4.18,scattered clouds
22,Bilibino,RU,68.0546,166.4372,43.07,76,97,3.15,overcast clouds
23,Jamestown,US,42.097,-79.2353,67.64,73,0,4.61,clear sky
24,Ushtobe,KZ,45.2514,77.9838,79.11,28,0,14.52,clear sky
25,Mataura,NZ,-46.1927,168.8643,50.49,62,100,5.5,overcast clouds
26,Taoudenni,ML,22.6783,-3.9836,95.5,10,0,11.25,clear sky
27,Kahului,US,20.8947,-156.47,87.82,48,40,24.16,scattered clouds
28,Busselton,AU,-33.65,115.3333,59.27,76,90,17.85,overcast clouds
29,Leningradskiy,RU,69.3833,178.4167,38.34,74,97,7.11,overcast clouds
30,Kavaratti,IN,10.5669,72.642,81.27,77,91,10.65,overcast clouds
31,Kanniyakumari,IN,8.0833,77.5667,78.87,79,100,12.95,overcast clouds
32,Touros,BR,-5.1989,-35.4608,73.94,76,52,15.93,broken clouds
33,Saskylakh,RU,71.9167,114.0833,56.16,49,22,3.24,few clouds
34,Verkhoyansk,RU,67.5447,133.385,64.42,57,67,3.51,broken clouds
35,Carnarvon,AU,-24.8667,113.6333,72.99,59,59,12.68,broken clouds
36,Yellowknife,CA,62.456,-114.3525,77.56,33,20,10.36,few clouds
37,Arraial Do Cabo,BR,-22.9661,-42.0278,69.28,76,4,26.73,clear sky
38,Bengkulu,ID,-3.8004,102.2655,81.14,78,89,1.72,overcast clouds
39,Thompson,CA,55.7435,-97.8558,75.36,38,20,2.3,few clouds
40,Puerto Escondido,MX,15.85,-97.0667,83.23,69,40,3.44,scattered clouds
41,Barrow,US,71.2906,-156.7887,37.42,87,100,13.8,light rain
42,The Valley,AI,18.217,-63.0578,83.82,77,12,5.97,few clouds
43,Ust-Omchug,RU,61.15,149.6333,60.51,70,88,4.45,light rain
44,Sinaloa,MX,25.0,-107.5,86.61,78,100,1.99,overcast clouds
45,Rikitea,PF,-23.1203,-134.9692,73.69,77,0,17.36,clear sky
46,Ahuimanu,US,21.4447,-157.8378,87.51,59,75,19.57,broken clouds
47,Buala,SB,-8.145,159.5921,84.33,68,43,5.23,light rain
48,Meulaboh,ID,4.1363,96.1285,78.67,72,100,6.53,overcast clouds
49,Nikolskoye,RU,59.7035,30.7861,62.8,82,6,3.44,clear sky
50,Goderich,CA,43.7501,-81.7165,70.92,83,100,4.61,overcast clouds
51,Pangody,RU,65.85,74.4859,43.57,87,100,18.84,overcast clouds
52,Belaya Gora,RU,68.5333,146.4167,55.63,45,1,13.18,clear sky
53,Kodiak,US,57.79,-152.4072,53.11,94,100,8.05,overcast clouds
54,Longyearbyen,SJ,78.2186,15.6401,42.64,87,75,11.5,light rain
55,Katsuura,JP,35.1333,140.3,85.42,76,99,11.97,overcast clouds
56,Rondonopolis,BR,-16.4708,-54.6356,77.85,27,4,1.66,clear sky
57,Pahrump,US,36.2083,-115.9839,93.25,27,56,11.65,broken clouds
58,Eyl,SO,7.9803,49.8164,76.14,81,43,19.48,scattered clouds
59,Coihaique,CL,-45.5752,-72.0662,35.55,87,100,9.22,light rain
60,Klaksvik,FO,62.2266,-6.589,47.32,86,100,6.69,overcast clouds
61,Mount Gambier,AU,-37.8333,140.7667,49.91,93,75,14.97,light intensity shower rain
62,Albany,US,42.6001,-73.9662,71.06,58,33,0.58,scattered clouds
63,Hobart,AU,-42.8794,147.3294,55.26,94,75,8.05,light rain
64,Henties Bay,NA,-22.116,14.2845,51.51,91,5,4.52,clear sky
65,Hermanus,ZA,-34.4187,19.2345,39.79,69,4,9.35,clear sky
66,Havre-Saint-Pierre,CA,50.2334,-63.5986,61.16,94,100,3.44,overcast clouds
67,Cherskiy,RU,68.75,161.3,49.69,57,6,4.65,clear sky
68,Ribeira Grande,PT,38.5167,-28.7,75.47,86,7,7.81,clear sky
69,Avarua,CK,-21.2078,-159.775,71.65,83,100,4.61,overcast clouds
70,Puerto Ayora,EC,-0.7393,-90.3518,69.55,96,99,1.99,overcast clouds
71,Cape Town,ZA,-33.9258,18.4232,47.12,82,0,3.0,clear sky
72,Bandarbeyla,SO,9.4942,50.8122,76.5,79,100,25.08,overcast clouds
73,Cidreira,BR,-30.1811,-50.2056,60.82,94,100,12.73,light rain
74,Tiksi,RU,71.6872,128.8694,46.72,83,99,4.34,overcast clouds
75,Garoua,CM,9.3,13.4,72.52,92,100,5.79,overcast clouds
76,Le Port,RE,-20.9373,55.2919,70.25,55,14,10.71,few clouds
77,Atuona,PF,-9.8,-139.0333,77.54,68,0,20.0,clear sky
78,Victoria,HK,22.2855,114.1577,89.96,81,91,4.0,overcast clouds
79,Kiunga,PG,-6.1219,141.2906,78.08,90,100,3.38,overcast clouds
80,Te Anau,NZ,-45.4167,167.7167,46.06,69,100,1.36,overcast clouds
81,Robertson,US,36.5167,-86.8667,85.98,75,75,5.75,broken clouds
82,Turbiv,UA,49.3479,28.7212,69.03,65,100,11.95,overcast clouds
83,Zyryanka,RU,65.75,150.85,50.85,57,100,4.38,overcast clouds
84,Gorontalo,ID,0.5412,123.0595,86.86,60,66,6.55,broken clouds
85,Whitecourt,CA,54.1502,-115.6855,76.24,38,20,8.05,few clouds
86,North Augusta,US,33.5018,-81.9651,85.14,66,20,3.44,few clouds
87,Vaini,TO,-21.2,-175.2,75.36,78,75,13.8,broken clouds
88,Constitucion,CL,-35.3333,-72.4167,49.46,73,99,11.07,overcast clouds
89,Port Alfred,ZA,-33.5906,26.891,55.44,64,95,26.71,light rain
90,Vallenar,CL,-28.5708,-70.7581,56.66,70,73,1.21,broken clouds
91,Bowmore,US,34.9421,-79.3031,80.74,54,0,4.61,clear sky
92,Dzaoudzi,YT,-12.7887,45.2699,73.29,83,0,5.75,clear sky
93,Pangoa,PE,-12.1167,-73.0,69.06,88,44,2.93,scattered clouds
94,Sabang,ID,5.8933,95.3214,82.78,70,64,9.35,broken clouds
95,Bathsheba,BB,13.2167,-59.5167,83.01,78,75,8.05,broken clouds
96,Alofi,NU,-19.0595,-169.9187,75.09,73,97,21.85,overcast clouds
97,Japura,ID,-0.3167,102.35,83.48,74,96,2.53,overcast clouds
98,Abha,SA,18.2164,42.5053,64.65,88,0,0.0,clear sky
99,Provideniya,RU,64.3833,-173.3,55.51,58,0,13.0,clear sky
100,Salalah,OM,17.0151,54.0924,73.49,100,100,8.05,drizzle
101,Phanat Nikhom,TH,13.4458,101.1844,88.09,33,100,4.25,overcast clouds
102,Saint-Leu,RE,-21.15,55.2833,69.31,69,1,0.69,clear sky
103,Broome,US,42.2506,-75.833,73.62,56,100,9.22,overcast clouds
104,Iisalmi,FI,63.5592,27.1907,57.49,88,14,3.71,few clouds
105,Laguna,US,38.421,-121.4238,100.65,15,0,1.99,clear sky
106,Lyudinovo,RU,53.8664,34.4478,60.64,84,64,5.7,broken clouds
107,Sur,OM,22.5667,59.5289,87.75,59,52,9.48,broken clouds
108,Mayo,US,38.8876,-76.5119,75.99,78,75,6.91,broken clouds
109,Sobolevo,RU,54.4299,31.8996,60.58,92,35,6.4,scattered clouds
110,Luderitz,NA,-26.6481,15.1594,53.44,60,5,10.02,clear sky
111,Kirkland Lake,CA,48.1446,-80.0377,66.49,82,79,1.16,broken clouds
112,Upernavik,GL,72.7868,-56.1549,42.12,82,100,6.31,overcast clouds
113,Puksoozero,RU,62.5903,40.6066,52.12,79,15,4.72,few clouds
114,Fort Nelson,CA,58.8053,-122.7002,67.59,88,75,5.75,broken clouds
115,Haines Junction,CA,60.7522,-137.5108,58.95,67,100,6.91,overcast clouds
116,Kavieng,PG,-2.5744,150.7967,83.05,67,100,5.66,overcast clouds
117,Husavik,IS,66.0449,-17.3389,43.02,77,43,7.16,scattered clouds
118,Walvis Bay,NA,-22.9575,14.5053,47.35,93,5,6.91,clear sky
119,Torbay,CA,47.6666,-52.7314,70.75,96,100,9.22,overcast clouds
120,Namatanai,PG,-3.6667,152.4333,83.61,70,100,3.04,overcast clouds
121,Na Wa,TH,17.4897,104.1006,86.23,74,48,5.75,scattered clouds
122,Tessalit,ML,20.1986,1.0114,92.82,13,15,7.72,few clouds
123,Georgetown,MY,5.4112,100.3354,83.89,86,40,3.44,scattered clouds
124,Verkhnyaya Inta,RU,65.9811,60.3094,46.09,82,100,11.88,overcast clouds
125,Sitka,US,57.0531,-135.33,57.09,94,100,4.61,heavy intensity rain
126,Leh,IN,34.1667,77.5833,65.25,54,71,6.02,broken clouds
127,Mach,PK,29.8637,67.3298,75.96,77,98,1.45,overcast clouds
128,Bredasdorp,ZA,-34.5322,20.0403,42.31,73,20,4.29,few clouds
129,Mirabad,AF,30.4362,61.8383,85.19,18,94,14.72,overcast clouds
130,Sao Filipe,CV,14.8961,-24.4956,77.02,74,5,7.4,clear sky
131,Olafsvik,IS,64.8945,-23.7142,46.58,71,21,6.6,few clouds
132,Mahebourg,MU,-20.4081,57.7,67.24,94,75,13.8,broken clouds
133,Caravelas,BR,-17.7125,-39.2481,67.93,82,70,5.39,broken clouds
134,Takhtamygda,RU,54.1,123.5667,72.7,54,35,1.28,scattered clouds
135,Fukue,JP,32.6881,128.8419,86.36,84,75,11.5,broken clouds
136,Xichang,CN,27.8964,102.2634,74.3,80,50,1.72,scattered clouds
137,Kidal,ML,18.4411,1.4078,92.52,14,100,9.46,overcast clouds
138,Florida,US,28.7505,-82.5001,78.91,91,40,0.0,scattered clouds
139,Kyaikkami,MM,16.08,97.5675,81.75,77,100,3.33,light rain
140,Faanui,PF,-16.4833,-151.75,78.75,74,14,13.51,few clouds
141,Esperance,AU,-33.8667,121.9,58.53,64,0,13.56,clear sky
142,Fort Saint James,CA,54.4333,-124.25,70.54,48,64,5.97,broken clouds
143,Lazaro Cardenas,MX,17.9583,-102.2,80.02,78,95,2.13,overcast clouds
144,Geraldton,AU,-28.7667,114.6,59.41,82,0,8.05,clear sky
145,Dikson,RU,73.5069,80.5464,43.79,93,100,5.79,overcast clouds
146,Isangel,VU,-19.55,169.2667,80.71,74,100,11.5,overcast clouds
147,Lebu,CL,-37.6167,-73.65,44.8,77,32,10.63,scattered clouds
148,Komsomolskiy,UZ,40.4272,71.7189,77.72,41,53,4.61,broken clouds
149,Clyde River,CA,70.4692,-68.5914,43.03,93,20,5.75,few clouds
150,Saint George,US,37.1041,-113.5841,82.99,51,40,17.27,scattered clouds
151,Pacific Grove,US,36.6177,-121.9166,75.24,81,40,10.0,scattered clouds
152,Baneh,IR,35.9975,45.8853,69.26,28,0,2.89,clear sky
153,Pemba,MZ,-12.974,40.5178,73.22,82,10,9.69,clear sky
154,Tocopilla,CL,-22.092,-70.1979,58.66,68,14,6.15,few clouds
155,Banjar,ID,-8.19,114.9675,84.49,72,26,0.54,scattered clouds
156,Kayerkan,RU,69.3497,87.7602,60.53,63,97,5.61,overcast clouds
157,Ancud,CL,-41.8697,-73.8203,43.23,77,20,15.57,light rain
158,Ponta Do Sol,PT,32.6667,-17.1,74.01,75,0,2.42,clear sky
159,Severo-Kurilsk,RU,50.6789,156.125,57.83,98,100,23.55,moderate rain
160,Ust-Nera,RU,64.5667,143.2,66.42,58,100,5.1,light rain
161,Desaguadero,PE,-16.5656,-69.0417,45.95,47,6,2.98,clear sky
162,Tuktoyaktuk,CA,69.4541,-133.0374,48.2,87,100,14.97,overcast clouds
163,Tuatapere,NZ,-46.1333,167.6833,52.16,61,100,4.61,overcast clouds
164,Saldanha,ZA,-33.0117,17.9442,42.85,72,4,6.62,clear sky
165,Sotnikovo,RU,51.8845,107.4791,68.09,56,56,2.24,broken clouds
166,Toledo,ES,39.8333,-4.0,67.26,31,1,3.69,clear sky
167,Sumbe,AO,-11.2061,13.8437,66.7,95,17,5.28,few clouds
168,Lincoln,US,40.8,-96.667,80.51,57,0,14.97,clear sky
169,Khatanga,RU,71.9667,102.5,62.8,45,8,7.16,clear sky
170,Seoul,KR,37.5683,126.9778,85.6,79,75,16.11,moderate rain
171,Cabedelo,BR,-6.9811,-34.8339,72.27,73,14,13.4,few clouds
172,Araouane,ML,18.9048,-3.5265,96.06,23,35,7.18,scattered clouds
173,Berlevag,NO,70.8578,29.0864,46.4,87,94,11.5,overcast clouds
174,Hithadhoo,MV,-0.6,73.0833,82.81,73,29,8.32,scattered clouds
175,Gasa,PS,31.5,34.4667,70.88,70,0,2.82,clear sky
176,Castro,BR,-24.7911,-50.0119,55.98,67,0,4.88,clear sky
177,Ketchikan,US,55.3422,-131.6461,59.47,94,100,12.66,light rain
178,Mabaruma,GY,8.2,-59.7833,72.86,96,35,3.13,scattered clouds
179,Harper,LR,4.375,-7.7169,74.05,88,100,12.86,light rain
180,Sao Joao Del Rei,BR,-21.1356,-44.2617,56.21,64,0,4.56,clear sky
181,Haapiti,PF,-17.5667,-149.8667,82.13,74,43,12.86,scattered clouds
182,Lorengau,PG,-2.0226,147.2712,84.42,61,100,6.42,overcast clouds
183,Bluff,NZ,-46.6,168.3333,50.81,71,99,8.1,overcast clouds
184,Paramonga,PE,-10.6667,-77.8333,61.5,86,60,10.18,broken clouds
185,Port Elizabeth,ZA,-33.918,25.5701,50.29,91,100,13.8,light intensity shower rain
186,Hegang,CN,47.4,130.3667,73.8,59,3,5.19,clear sky
187,Jumla,NP,29.2747,82.1838,62.2,96,100,1.34,overcast clouds
188,Astaneh-Ye Ashrafiyeh,IR,37.2596,49.9444,73.33,74,0,2.64,clear sky
189,Doha,QA,25.2867,51.5333,89.58,64,0,2.3,clear sky
190,Livingston,GB,55.9029,-3.5226,60.94,95,100,5.75,overcast clouds
191,Guerrero Negro,MX,27.9769,-114.0611,74.08,73,0,17.0,clear sky
192,Chernyshevskiy,RU,63.0128,112.4714,50.22,88,100,8.28,overcast clouds
193,Avera,US,33.194,-82.5271,78.31,47,4,4.41,clear sky
194,Meadow Lake,US,34.8014,-106.5436,88.12,33,4,4.72,clear sky
195,Hobyo,SO,5.3505,48.5268,76.03,86,100,19.17,overcast clouds
196,Port Macquarie,AU,-31.4333,152.9167,65.89,40,6,3.49,clear sky
197,Kitimat,CA,54.0524,-128.6534,70.18,21,100,2.95,overcast clouds
198,Tra Vinh,VN,9.9347,106.3453,83.46,75,95,8.34,light rain
199,Huarmey,PE,-10.0681,-78.1522,62.58,84,23,11.32,few clouds
200,Kaitangata,NZ,-46.2817,169.8464,51.31,66,96,8.12,overcast clouds
201,Camabatela,AO,-8.1881,15.375,56.32,94,20,4.79,few clouds
202,Haimen,CN,23.1935,116.6142,87.69,71,10,1.41,clear sky
203,Codrington,AU,-38.2667,141.9667,54.64,78,55,18.95,broken clouds
204,Durban,ZA,-29.8579,31.0292,58.01,75,0,5.01,clear sky
205,Lebork,PL,54.5392,17.7501,65.75,95,50,7.4,scattered clouds
206,Harlingen,US,26.1906,-97.6961,82.35,96,100,5.75,overcast clouds
207,Pumiao,CN,22.75,108.4833,82.8,73,48,6.29,scattered clouds
208,Halifax,CA,44.6453,-63.5724,66.52,86,98,14.97,overcast clouds
209,Stafford,GB,52.8052,-2.1164,70.72,52,46,3.13,scattered clouds
210,Coahuayana,MX,18.7333,-103.6833,77.56,91,100,1.61,overcast clouds
211,Muli,MV,2.9167,73.5667,81.1,76,92,10.96,overcast clouds
212,Acari,PE,-15.4311,-74.6158,62.58,72,78,4.76,broken clouds
213,Arrecife,ES,28.963,-13.5477,73.38,78,0,17.27,clear sky
214,Axim,GH,4.8699,-2.2405,74.82,87,100,13.6,light rain
215,Saint Anthony,US,45.0205,-93.218,69.82,79,0,6.91,clear sky
216,Ayan,RU,56.45,138.1667,56.37,86,60,7.31,broken clouds
217,Richards Bay,ZA,-28.783,32.0377,62.58,54,79,7.65,broken clouds
218,Nauta,PE,-4.5061,-73.5757,72.45,94,99,3.42,overcast clouds
219,Chokurdakh,RU,70.6333,147.9167,55.42,37,7,8.88,clear sky
220,Shumskiy,RU,54.8318,99.1328,65.98,58,51,2.82,light rain
221,Bolshaya Martynovka,RU,47.271,41.6679,77.13,31,6,12.19,clear sky
222,La Ronge,CA,55.1001,-105.2842,73.65,53,40,9.22,scattered clouds
223,Uthal,PK,25.8072,66.6219,85.06,73,73,3.56,broken clouds
224,Dera Bugti,PK,29.0307,69.151,82.27,70,20,2.55,few clouds
225,Aklavik,CA,68.2191,-135.0107,51.84,75,97,11.41,overcast clouds
226,Talara,PE,-4.5772,-81.2719,64.87,88,5,18.72,clear sky
227,Tilichiki,RU,60.4667,166.1,56.01,87,100,9.71,overcast clouds
228,Villa Del Rosario,CO,7.8339,-72.4742,77.38,61,40,10.36,scattered clouds
229,Kautokeino,NO,69.0125,23.0412,44.13,76,99,2.39,overcast clouds
230,Safaga,EG,26.7292,33.9365,85.69,39,4,16.04,clear sky
231,Qui Nhon,VN,13.7667,109.2333,84.06,75,100,2.33,overcast clouds
232,Almenara,BR,-16.1836,-40.6944,59.65,83,0,0.72,light rain
233,Bosanski Novi,BA,45.0458,16.3803,62.06,76,59,3.0,broken clouds
234,Beira,MZ,-19.8436,34.8389,64.49,88,0,6.91,clear sky
235,Sao Joao Da Barra,BR,-21.6403,-41.0511,69.93,76,3,17.02,clear sky
236,Dedza,MW,-14.3779,34.3332,54.59,55,0,2.73,clear sky
237,Kruisfontein,ZA,-34.0033,24.7314,46.89,69,59,10.6,broken clouds
238,Lompoc,US,34.6391,-120.4579,65.84,82,100,11.5,overcast clouds
239,Henderson,US,36.0397,-114.9819,98.04,37,0,9.22,clear sky
240,Eirunepe,BR,-6.6603,-69.8736,76.71,75,41,1.25,scattered clouds
241,Ravar,IR,31.2656,56.8055,79.39,12,5,6.46,clear sky
242,Airai,TL,-8.9266,125.4092,71.83,42,82,5.23,broken clouds
243,Port Lincoln,AU,-34.7333,135.8667,55.47,82,97,12.46,overcast clouds
244,Kurilsk,RU,45.2333,147.8833,60.4,92,100,2.57,overcast clouds
245,Bang Saphan,TH,11.2126,99.5117,84.43,70,100,7.9,overcast clouds
246,Oranjestad,AW,12.524,-70.027,80.55,89,20,14.97,few clouds
247,Grand Gaube,MU,-20.0064,57.6608,67.37,78,99,13.0,overcast clouds
248,Zeya,RU,53.75,127.2667,72.93,62,10,2.06,clear sky
249,Shingu,JP,33.7333,135.9833,91.15,58,80,10.49,broken clouds
250,Pisco,PE,-13.7,-76.2167,61.02,82,3,10.36,mist
251,Osakarovka,KZ,50.565,72.5692,58.84,48,62,8.63,broken clouds
252,Vila Velha,BR,-20.3297,-40.2925,64.94,82,75,2.3,broken clouds
253,Zaysan,KZ,47.4667,84.8667,73.67,39,0,3.65,clear sky
254,Iqaluit,CA,63.7506,-68.5145,44.33,81,75,12.66,light intensity shower rain
255,Korla,CN,41.7597,86.1469,85.8,24,32,2.98,scattered clouds
256,Konevo,RU,62.1215,39.3192,53.31,77,8,3.76,clear sky
257,Nishihara,JP,26.1842,127.7558,89.26,75,40,13.8,scattered clouds
258,Rubi,ES,41.4923,2.033,79.2,73,0,3.0,clear sky
259,Don Benito,ES,38.9563,-5.8616,63.81,66,0,9.66,clear sky
260,Olinda,BR,-8.0089,-34.8553,76.73,65,40,11.5,scattered clouds
261,Greer,US,34.9387,-82.2271,80.35,74,40,6.91,scattered clouds
262,Rokiskis,LT,55.9667,25.5833,63.66,95,100,6.42,overcast clouds
263,Igra,RU,57.5558,53.0547,53.11,90,0,3.22,clear sky
264,Ormara,PK,25.2088,64.6357,81.97,84,100,4.16,overcast clouds
265,Vestmannaeyjar,IS,63.4427,-20.2734,47.35,71,1,19.08,clear sky
266,San Patricio,US,28.017,-97.5169,84.83,81,100,14.09,overcast clouds
267,San Jose,US,37.3394,-121.895,85.89,50,0,14.97,clear sky
268,Marfino,RU,55.7028,37.3822,67.95,68,0,4.47,clear sky
269,Deputatskiy,RU,69.3,139.9,42.57,80,100,5.86,overcast clouds
270,Rio Blanco,MX,18.8333,-97.15,67.35,95,100,0.81,overcast clouds
271,Nynashamn,SE,58.9034,17.9479,64.11,86,64,9.13,broken clouds
272,Merauke,ID,-8.4667,140.3333,79.43,74,70,17.78,broken clouds
273,Capreol,CA,46.706,-80.9225,66.67,55,40,4.61,scattered clouds
274,Vestmanna,FO,62.1564,-7.1664,45.52,100,40,1.14,scattered clouds
275,Olga,RU,43.7444,135.2892,72.45,66,100,4.92,moderate rain
276,Tulare,US,36.2666,-118.8009,92.71,16,0,4.38,clear sky
277,Vagur,FO,61.4732,-6.8119,51.87,83,100,6.4,overcast clouds
278,Pevek,RU,69.7008,170.3133,33.73,86,86,9.37,overcast clouds
279,Winslow,US,35.0242,-110.6974,80.78,34,0,10.36,clear sky
280,Santiago Del Estero,AR,-27.7951,-64.2615,72.18,39,2,2.64,clear sky
281,Aguimes,ES,27.9054,-15.4461,70.43,78,40,25.99,scattered clouds
282,Charters Towers,AU,-20.1,146.2667,70.23,25,100,9.22,overcast clouds
283,Praia Da Vitoria,PT,38.7333,-27.0667,77.25,88,75,11.83,broken clouds
284,Los Llanos De Aridane,ES,28.6585,-17.9182,69.55,89,0,11.5,clear sky
285,Alice Springs,AU,-23.7,133.8833,67.55,18,0,12.66,clear sky
286,Norman Wells,CA,65.282,-126.8329,77.04,57,75,10.36,broken clouds
287,Alyangula,AU,-13.8483,136.4192,77.13,40,9,16.71,clear sky
288,Sabha,LY,27.0377,14.4283,82.89,27,3,8.97,clear sky
289,Ahipara,NZ,-35.1667,173.1667,59.86,80,100,11.88,moderate rain
290,Teeli,RU,51.0333,90.2333,63.66,48,7,2.04,clear sky
291,Biltine,TD,14.5333,20.9167,75.87,80,98,10.89,moderate rain
292,Kolaras,IN,25.2333,77.6,74.61,94,100,7.43,overcast clouds
293,Kirakira,SB,-10.4544,161.9205,83.43,71,64,7.63,broken clouds
294,Paamiut,GL,61.994,-49.6678,43.72,95,69,11.12,broken clouds
295,Darlowo,PL,54.421,16.4107,67.01,88,12,8.66,few clouds
296,Carballo,ES,43.213,-8.691,64.09,91,28,4.0,scattered clouds
297,Borogontsy,RU,62.6683,131.1683,60.03,91,99,5.17,overcast clouds
298,Blythe,US,33.6103,-114.5964,104.45,27,20,12.66,few clouds
299,Asau,RO,46.4333,26.4,63.52,90,100,4.36,overcast clouds
300,Quthing,LS,-30.4,27.7003,31.8,83,25,3.4,scattered clouds
301,Ternate,ID,0.8,127.4,80.35,79,100,8.66,light rain
302,Cockburn Town,TC,21.4612,-71.1419,82.44,73,6,13.67,clear sky
303,San Quintin,MX,30.4833,-115.95,72.97,80,3,11.5,clear sky
304,Vardo,NO,70.3705,31.1107,44.58,81,71,8.05,broken clouds
305,Tayu,ID,-6.5397,111.0518,84.2,68,48,6.31,scattered clouds
306,Vostok,RU,46.4856,135.8833,72.37,56,69,2.8,broken clouds
307,Nemuro,JP,43.3236,145.575,68.29,80,85,4.56,overcast clouds
308,Necochea,AR,-38.5473,-58.7368,55.11,97,100,15.88,moderate rain
309,Moron,AR,-34.6534,-58.6198,66.99,83,74,7.4,broken clouds
310,Ust-Ilimsk,RU,58.0006,102.6619,54.54,92,100,9.15,light rain
311,Bayan,CN,46.0833,127.4,74.89,63,69,11.14,broken clouds
312,Tazovskiy,RU,67.4667,78.7,45.0,96,100,15.99,overcast clouds
313,Methala,IN,10.2166,76.2166,73.4,89,100,2.24,overcast clouds
314,Mizan Teferi,ET,6.9833,35.5833,60.82,98,100,1.57,light rain
315,Ponca City,US,36.707,-97.0856,93.16,42,0,9.22,clear sky
316,Bambous Virieux,MU,-20.3428,57.7575,67.21,94,75,13.8,broken clouds
317,Flin Flon,CA,54.7682,-101.865,67.89,57,0,5.23,clear sky
318,Lata,PT,40.1629,-8.3327,56.43,98,17,1.92,few clouds
319,Pontes E Lacerda,BR,-15.2261,-59.3353,74.79,38,69,2.57,broken clouds
320,Zheleznodorozhnyy,RU,55.7503,38.0042,64.92,69,100,4.07,overcast clouds
321,Tiarei,PF,-17.5333,-149.3333,82.42,78,29,13.47,scattered clouds
322,Dingle,PH,10.9995,122.6711,81.1,82,92,8.61,overcast clouds
323,Akhtubinsk,RU,48.2795,46.1722,76.89,34,24,10.98,few clouds
324,Pasni,PK,25.2631,63.471,80.92,91,100,3.02,light rain
325,Amur,RU,54.0,128.0,67.8,66,10,2.39,light rain
326,Smolenka,RU,52.1352,113.4974,64.47,68,7,4.47,clear sky
327,Lichinga,MZ,-13.3128,35.2406,55.49,88,0,4.61,clear sky
328,Pitimbu,BR,-7.4706,-34.8086,72.19,73,6,12.35,clear sky
329,Cape Coast,GH,5.1053,-1.2466,74.32,88,100,14.32,light rain
330,Pogar,RU,52.554,33.2591,65.39,67,100,9.1,overcast clouds
331,Arlit,NE,18.7369,7.3853,96.3,28,100,9.19,overcast clouds
332,Skibbereen,IE,51.55,-9.2667,61.23,92,15,11.16,few clouds
333,Bantry,IE,51.6833,-9.45,59.92,95,30,6.51,scattered clouds
334,Dwarka,IN,22.2394,68.9678,80.67,87,97,17.22,overcast clouds
335,Bundaberg,AU,-24.85,152.35,68.67,43,0,2.01,clear sky
336,Nouadhibou,MR,20.931,-17.0347,73.38,83,3,8.05,clear sky
337,Sioux Lookout,CA,50.1001,-91.917,68.07,94,100,0.0,overcast clouds
338,Agirish,RU,61.9247,63.0231,45.54,73,38,4.52,scattered clouds
339,Adrar,MR,20.5022,-10.0711,87.28,45,7,19.6,clear sky
340,Rocha,UY,-34.4833,-54.3333,59.38,87,4,11.99,clear sky
341,Tezu,IN,27.9167,96.1667,77.07,98,98,1.66,overcast clouds
342,Smithers,CA,54.7804,-127.1743,70.12,56,75,5.75,broken clouds
343,Milkovo,RU,54.7167,158.6167,57.79,94,100,4.05,light rain
344,Lamesa,US,32.7376,-101.951,91.53,28,57,11.25,broken clouds
345,Kardla,EE,58.9978,22.7492,64.06,84,100,7.34,overcast clouds
346,Lingyuan,CN,41.24,119.4011,76.57,69,75,9.91,broken clouds
347,Beringovskiy,RU,63.05,179.3167,57.07,78,100,9.1,overcast clouds
348,Binghamton,US,42.0987,-75.918,73.92,54,100,9.22,overcast clouds
349,Marivan,IR,35.5219,46.176,73.49,28,0,3.06,clear sky
350,Oranjemund,NA,-28.55,16.4333,51.62,68,95,4.85,overcast clouds
351,Waipawa,NZ,-41.4122,175.5153,50.99,70,100,3.2,overcast clouds
352,Port Hardy,CA,50.6996,-127.4199,60.98,94,75,5.75,broken clouds
353,Esqueda,MX,30.7167,-109.5833,69.87,76,97,9.71,light rain
354,Hamilton,US,39.1834,-84.5333,72.9,92,100,3.44,overcast clouds
355,Grand-Santi,GF,4.25,-54.3833,71.65,98,100,1.81,overcast clouds
356,Xining,CN,36.6167,101.7667,58.5,83,100,2.48,overcast clouds
357,Ust-Barguzin,RU,53.45,108.9833,62.17,62,93,6.04,overcast clouds
358,Muros,ES,42.7762,-9.0603,62.83,90,7,2.93,clear sky
359,Lander,US,42.833,-108.7307,67.98,69,100,5.75,overcast clouds
360,Mayumba,GA,-3.432,10.6554,68.31,91,17,3.53,few clouds
361,Kloulklubed,PW,7.0419,134.2556,82.9,73,73,4.41,broken clouds
362,Tevaitoa,PF,-16.7833,-151.5,78.75,76,7,12.66,light rain
363,Lavrentiya,RU,65.5833,-171.0,42.76,72,31,6.49,scattered clouds
364,Atar,MR,20.5169,-13.0499,84.74,53,100,7.34,overcast clouds
365,Neiafu,TO,-18.65,-173.9833,77.68,78,75,14.97,broken clouds
366,Yekimovichi,RU,54.1129,33.2965,62.76,84,88,5.95,overcast clouds
367,Stralsund,DE,54.3091,13.0818,68.05,82,44,7.11,scattered clouds
368,Ipixuna,BR,-1.7625,-48.8043,74.07,81,24,3.56,few clouds
369,Forest,US,37.3638,-79.2897,69.85,93,100,0.0,overcast clouds
370,Payo,ID,-3.7508,103.6372,82.9,68,93,2.3,overcast clouds
371,Yerbogachen,RU,61.2767,108.0108,55.98,58,48,3.02,scattered clouds
372,Kuching,MY,1.55,110.3333,80.82,89,20,5.01,few clouds
373,Marsh Harbour,BS,26.5412,-77.0636,83.8,70,51,7.72,broken clouds
374,Bozoum,CF,6.3193,16.3799,67.32,96,100,6.02,light rain
375,San Rafael,AR,-34.6177,-68.3301,51.76,43,34,6.78,scattered clouds
376,Moose Factory,CA,51.2585,-80.6094,57.2,76,0,2.3,clear sky
377,San Policarpo,PH,12.1791,125.5072,82.18,75,95,4.97,overcast clouds
378,Catio,GW,11.2833,-15.25,75.6,93,99,7.09,moderate rain
379,Warrnambool,AU,-38.3833,142.4833,54.21,75,96,22.41,overcast clouds
380,Rostovka,RU,55.3842,71.8891,54.18,69,7,12.01,clear sky
381,Butte,US,39.6499,-121.5677,97.38,9,0,3.44,clear sky
382,Belle Fourche,US,44.6714,-103.8522,85.32,35,100,4.63,overcast clouds
383,Buraydah,SA,26.326,43.975,90.05,19,4,9.19,clear sky
384,Salinas,US,36.6777,-121.6555,81.21,66,0,12.66,clear sky
385,Mbaiki,CF,3.8678,17.9892,69.91,87,100,2.98,overcast clouds
386,Novopavlovka,RU,51.2172,109.2091,71.65,50,5,5.44,clear sky
387,Nurota,UZ,40.5614,65.6886,77.88,25,0,4.0,clear sky
388,Waingapu,ID,-9.6567,120.2641,84.9,55,8,17.18,clear sky
389,Belmonte,BR,-15.8631,-38.8828,69.62,78,69,6.38,broken clouds
390,Kulu,TR,39.0951,33.0799,74.07,42,10,1.74,clear sky
391,Saint-Augustin,CA,51.226,-58.6502,59.16,98,100,14.88,overcast clouds
392,La Ciotat,FR,43.1748,5.6045,73.81,77,2,5.1,clear sky
393,Souris,CA,49.6172,-100.2612,80.46,65,96,8.3,overcast clouds
394,Pimentel,PE,-6.8367,-79.9342,62.19,88,7,18.48,clear sky
395,Port Hedland,AU,-20.3167,118.5667,86.05,30,2,8.05,clear sky
396,Nalut,LY,30.3333,10.85,85.68,21,0,5.01,clear sky
397,Mapiripan,CO,2.8892,-72.1256,71.2,95,48,3.02,scattered clouds
398,Erzin,TR,36.9559,36.2,74.91,90,41,4.83,scattered clouds
399,Akdepe,TM,42.0551,59.3788,71.69,36,0,8.9,clear sky
400,Harare,ZW,-17.8294,31.0539,57.81,33,0,1.43,clear sky
401,Sibenik,HR,43.7272,15.9058,67.66,83,3,2.26,clear sky
402,Den Helder,NL,52.9599,4.7593,71.98,93,100,5.01,mist
403,Uberlandia,BR,-18.9186,-48.2772,69.01,42,0,6.91,clear sky
404,Faya,SA,18.3851,42.4509,64.92,70,100,3.8,overcast clouds
405,Lagoa,PT,39.05,-27.9833,73.98,82,1,12.62,clear sky
406,Khani,GE,41.9563,42.9566,63.97,50,0,5.93,clear sky
407,Bahia Blanca,AR,-38.7196,-62.2724,48.67,87,52,3.2,broken clouds
408,Purranque,CL,-40.9167,-73.1667,40.33,98,14,3.29,light rain
409,Monaragala,LK,6.8714,81.3487,80.51,72,87,2.62,overcast clouds
410,Prince Rupert,CA,54.3161,-130.3201,66.29,72,40,10.36,scattered clouds
411,The Pas,CA,53.8251,-101.2541,71.62,73,40,8.05,scattered clouds
412,Hofn,IS,64.2539,-15.2082,46.8,69,29,10.29,scattered clouds
413,Dunedin,NZ,-45.8742,170.5036,51.22,60,100,12.3,overcast clouds
414,Anadyr,RU,64.75,177.4833,59.5,77,40,8.95,light rain
415,Noto,IT,36.8901,15.0693,72.59,74,0,5.23,clear sky
416,Buenos Aires,AR,-34.6132,-58.3772,66.97,83,0,2.3,clear sky
417,Terra Santa,BR,-2.1042,-56.4869,73.98,86,97,3.06,overcast clouds
418,Polson,US,47.6936,-114.1632,82.78,30,0,4.07,clear sky
419,Kamaishi,JP,39.2667,141.8833,79.34,75,97,3.78,overcast clouds
420,Mahina,PF,-17.5065,-149.489,82.17,65,20,6.91,few clouds
421,Ilo,PE,-17.6394,-71.3375,58.44,81,76,4.92,broken clouds
422,Tomatlan,MX,19.9333,-105.25,76.05,97,100,3.24,overcast clouds
423,Pontianak,ID,-0.0333,109.3333,82.38,78,20,3.44,few clouds
424,Waspan,NI,14.7419,-83.9717,75.56,95,100,3.15,overcast clouds
425,Nyurba,RU,63.2842,118.3319,57.87,72,100,8.21,overcast clouds
426,Ambilobe,MG,-13.2,49.05,62.87,81,3,4.5,clear sky
427,Bage,BR,-31.3314,-54.1069,62.6,82,3,16.46,clear sky
428,Kyshtovka,RU,56.555,76.6271,51.71,89,50,12.77,scattered clouds
429,Honiara,SB,-9.4333,159.95,83.82,73,27,4.88,scattered clouds
430,Dondo,MZ,-19.6094,34.7431,63.91,55,0,2.91,clear sky
431,Fortuna,US,40.5982,-124.1573,63.93,86,100,9.22,overcast clouds
432,General Roca,AR,-39.0333,-67.5833,50.63,44,55,23.64,broken clouds
433,Nuuk,GL,64.1835,-51.7216,45.88,93,100,18.99,overcast clouds
434,Capitan Bado,PY,-23.2667,-55.5333,69.98,49,0,10.83,clear sky
435,Samarai,PG,-10.6167,150.6667,83.41,72,25,9.46,scattered clouds
436,Mangai,CD,-4.05,19.5333,70.0,48,22,2.08,few clouds
437,Tasiilaq,GL,65.6145,-37.6368,42.96,64,100,4.81,overcast clouds
438,Nanortalik,GL,60.1432,-45.2371,44.29,98,91,6.82,overcast clouds
439,Najran,SA,17.4924,44.1277,84.85,33,100,4.41,overcast clouds
440,Newport,GB,51.5877,-2.9984,70.68,71,14,4.99,few clouds
441,Bubaque,GW,11.2833,-15.8333,78.31,85,100,16.93,light rain
442,Muscat,OM,23.6139,58.5922,89.62,55,11,3.8,few clouds
443,Yatou,CN,37.15,122.3833,84.43,86,89,19.42,moderate rain
444,Launceston,AU,-41.45,147.1667,54.34,81,100,16.11,light rain
445,Tselinnoye,RU,53.0833,85.6667,59.36,61,3,12.59,clear sky
446,Gazli,UZ,40.1333,63.45,81.3,21,0,9.48,clear sky
447,Quang Ngai,VN,15.1167,108.8,84.58,74,100,2.13,overcast clouds
448,Bintulu,MY,3.1667,113.0333,81.01,83,20,2.3,few clouds
449,Lufilufi,WS,-13.8745,-171.5986,82.18,79,51,15.39,light rain
450,Oudtshoorn,ZA,-33.5907,22.2014,40.14,85,6,1.52,clear sky
451,Salym,RU,60.0625,71.4789,49.68,70,100,10.2,overcast clouds
452,Nabire,ID,-3.3667,135.4833,82.35,76,100,4.41,overcast clouds
453,Carroll,US,39.5501,-77.0164,71.87,72,100,1.99,overcast clouds
454,Palmer,US,42.1584,-72.3287,71.15,70,20,6.91,few clouds
455,Jinchang,CN,38.4953,102.1739,75.31,30,73,4.38,broken clouds
456,Marovoay,MG,-16.1,46.6333,62.91,73,0,5.5,clear sky
457,Kingaroy,AU,-26.5333,151.8333,61.32,39,0,7.78,clear sky
458,Sedro-Woolley,US,48.5039,-122.2361,78.57,65,0,1.01,clear sky
459,Narasannapeta,IN,18.4167,84.05,80.19,81,100,10.38,moderate rain
460,Onguday,RU,50.75,86.15,62.96,59,15,1.32,few clouds
461,Mutoko,ZW,-17.397,32.2268,56.28,40,0,3.76,clear sky
462,Ainazi,LV,57.8636,24.3578,65.52,79,100,9.57,overcast clouds
463,Gravdal,NO,68.1214,13.5031,52.59,72,96,9.04,overcast clouds
464,Gondanglegi,ID,-7.7479,112.0132,83.32,70,11,5.86,few clouds
465,Soller,ES,39.7662,2.7152,82.85,64,1,1.81,clear sky
466,San Felipe,VE,10.3399,-68.7425,71.46,93,83,4.61,broken clouds
467,Ojinaga,MX,29.5667,-104.4167,95.41,33,0,10.36,clear sky
468,Linares,CL,-35.85,-71.6,43.74,93,97,3.56,overcast clouds
469,Traiguen,CL,-38.25,-72.6833,35.85,97,91,5.35,light rain
470,Kaeo,NZ,-35.1,173.7833,58.32,94,100,9.89,moderate rain
471,Viedma,AR,-40.8135,-62.9967,50.92,42,63,12.73,broken clouds
472,Westfield,US,42.1251,-72.7495,71.11,67,0,6.91,clear sky
473,Namibe,AO,-15.1961,12.1522,59.79,87,3,3.24,clear sky
474,Acapulco,MX,16.8634,-99.8901,84.02,74,75,4.61,broken clouds
475,Langsa,ID,4.4683,97.9683,79.7,83,100,1.86,heavy intensity rain
476,Emba,KZ,48.8264,58.1442,72.95,31,0,23.73,clear sky
477,Baltoji Voke,LT,54.6,25.2,68.45,83,0,8.05,clear sky
478,Aguililla,MX,18.7333,-102.7333,66.96,97,97,4.94,overcast clouds
479,Narsaq,GL,60.9167,-46.05,50.22,94,73,1.5,broken clouds
480,Sao Felix Do Xingu,BR,-6.6447,-51.995,74.16,65,19,0.89,few clouds
481,Kupang,ID,-10.1667,123.5833,85.78,51,32,14.05,scattered clouds
482,Howard Springs,AU,-12.497,131.047,85.82,56,8,11.25,clear sky
483,Changji,CN,44.0167,87.3167,81.39,28,0,2.24,clear sky
484,Catumbela,AO,-12.4314,13.5472,65.82,91,7,3.78,clear sky
485,Churapcha,RU,62.0025,132.4325,70.83,51,99,8.63,overcast clouds
486,Menongue,AO,-14.6585,17.691,51.48,25,0,1.05,clear sky
487,Kenora,CA,49.8167,-94.4337,74.37,68,75,3.44,broken clouds
488,Carutapera,BR,-1.195,-46.02,75.24,88,79,4.56,broken clouds
489,Lethem,GY,3.3803,-59.7968,77.85,71,90,5.5,overcast clouds
490,La Primavera,CO,5.4906,-70.4092,74.66,92,97,2.01,overcast clouds
491,Betioky,MG,-23.7167,44.3833,63.37,67,6,4.76,clear sky
492,Santa Marta,CO,11.2408,-74.199,78.85,94,75,4.61,broken clouds
493,Prainha,BR,-1.8,-53.48,76.75,74,79,1.59,broken clouds
494,Shimoda,JP,34.6667,138.95,91.11,77,97,14.94,overcast clouds
495,Padang,ID,-0.9492,100.3543,78.85,72,91,3.58,overcast clouds
496,Fairbanks,US,64.8378,-147.7164,68.22,67,40,4.61,scattered clouds
497,Loandjili,CG,-4.7561,11.8578,69.91,94,100,2.3,overcast clouds
498,Ambovombe,MG,-25.1667,46.0833,67.12,70,0,9.4,clear sky
499,San Jeronimo,PE,-11.9472,-75.2829,51.21,73,13,3.02,few clouds
500,Gigmoto,PH,13.7796,124.39,82.99,78,99,9.84,very heavy rain
501,Sidi Ali,DZ,36.0998,0.4206,77.61,65,95,7.96,overcast clouds
502,Rizhao,CN,35.4275,119.4553,88.56,73,62,13.82,broken clouds
503,Bridlington,GB,54.0831,-0.1919,60.89,88,100,1.61,overcast clouds
504,Praia,CV,14.9215,-23.5087,79.34,73,20,4.61,few clouds
505,Iquitos,PE,-3.7481,-73.2472,71.64,100,75,1.14,broken clouds
506,Mehamn,NO,71.0357,27.8492,46.35,81,65,1.14,broken clouds
507,Caldas Da Rainha,PT,39.4033,-9.1384,66.67,92,4,5.01,clear sky
508,Poya,NC,-21.35,165.15,77.07,75,99,5.44,overcast clouds
509,Souillac,MU,-20.5167,57.5167,66.58,94,75,13.8,broken clouds
510,Ilulissat,GL,69.2167,-51.1,51.82,58,75,16.11,broken clouds
511,Pauini,BR,-7.7136,-66.9764,79.32,57,20,1.92,few clouds
512,Severnoye,RU,56.3491,78.3619,50.99,90,26,12.55,scattered clouds
513,Baiyin,CN,36.5583,104.2081,66.27,64,100,3.76,overcast clouds
514,Port Shepstone,ZA,-30.7414,30.455,58.21,41,0,28.1,clear sky
515,Gumla,IN,23.05,84.55,71.13,97,100,14.58,moderate rain
516,Mount Isa,AU,-20.7333,139.5,71.37,18,6,10.36,clear sky
517,Erenhot,CN,43.6475,111.9767,68.88,51,0,13.51,clear sky
518,Coruripe,BR,-10.1256,-36.1756,71.38,88,18,8.01,few clouds
519,San Cristobal,VE,7.7669,-72.225,71.78,99,99,4.03,overcast clouds
520,Unnao,IN,26.5333,80.5,82.38,76,97,15.97,overcast clouds
521,Marystown,CA,47.1666,-55.1483,65.25,99,100,9.22,overcast clouds
522,Kiama,AU,-34.6833,150.8667,63.88,50,92,10.0,overcast clouds
523,Troitsko-Pechorsk,RU,62.7084,56.1964,46.36,79,99,5.19,overcast clouds
524,Pombas,CV,17.1503,-25.0201,76.78,87,99,5.57,overcast clouds
525,Marawi,PH,7.9986,124.2928,80.22,58,97,4.45,overcast clouds
526,Warrington,GB,53.3925,-2.5802,71.35,80,0,3.44,clear sky
527,Veraval,IN,20.9,70.3667,79.72,87,100,18.92,overcast clouds
528,Ananindeua,BR,-1.3656,-48.3722,76.91,94,75,4.61,broken clouds
529,Mehran,IR,33.1222,46.1646,90.86,20,0,9.08,clear sky
530,Kachiry,KZ,53.0675,76.1036,58.64,58,1,10.49,clear sky
531,Guozhen,CN,34.3659,107.359,86.86,35,95,5.23,overcast clouds
532,Hirado,JP,33.3597,129.5531,83.44,82,69,16.31,broken clouds
533,Were Ilu,ET,10.6,39.4333,50.34,86,95,2.01,overcast clouds
534,Stornoway,GB,58.2093,-6.3865,54.93,98,100,3.44,mist
535,Araguacu,BR,-12.9306,-49.8264,78.22,36,2,4.94,clear sky
536,Vilhena,BR,-12.7406,-60.1458,71.31,47,46,2.68,scattered clouds
537,Yasnyy,RU,51.0333,59.8742,60.84,50,2,13.78,clear sky
538,Vila Franca Do Campo,PT,37.7167,-25.4333,73.81,94,38,4.83,scattered clouds
539,Lasa,IT,46.6166,10.7002,67.08,93,65,1.68,broken clouds
540,Malindi,KE,-3.2175,40.1191,73.4,86,38,11.7,scattered clouds
541,Superior,US,46.7208,-92.1041,67.17,91,100,9.22,fog
542,Christchurch,NZ,-43.5333,172.6333,51.91,72,75,18.41,broken clouds
543,Linxia,CN,35.6003,103.2064,62.89,83,100,0.96,overcast clouds
544,Shediac,CA,46.2198,-64.5411,62.37,94,100,5.75,overcast clouds
545,Bratsk,RU,56.1325,101.6142,57.69,74,7,10.56,clear sky
546,Jaisalmer,IN,26.9147,70.9181,80.38,80,96,8.23,overcast clouds
547,Newton Stewart,GB,54.9578,-4.4832,62.08,88,100,3.62,overcast clouds
548,Picos,BR,-7.0769,-41.4669,72.37,69,2,5.86,clear sky
549,Tura,IN,25.5198,90.2201,76.69,86,91,4.56,overcast clouds
550,Sorland,NO,67.667,12.6934,53.46,80,96,15.28,overcast clouds
551,Santa Cruz,BO,-17.8,-63.1667,78.26,69,6,12.66,clear sky
552,Kalmunai,LK,7.4167,81.8167,82.72,72,100,1.32,overcast clouds
553,Okha,RU,53.5739,142.9478,60.53,81,74,6.98,broken clouds
554,Santa Isabel Do Rio Negro,BR,-0.4139,-65.0192,72.05,97,100,3.24,overcast clouds
555,Sakskobing,DK,54.7997,11.626,68.11,91,62,8.37,broken clouds
556,Itupiranga,BR,-5.1347,-49.3267,75.52,43,11,2.95,few clouds
557,Tongzhou,CN,39.9053,116.5994,86.11,62,0,6.71,clear sky
558,Bull Savanna,JM,17.8868,-77.5902,77.49,80,25,4.61,scattered clouds
559,Semnan,IR,35.5729,53.3971,76.84,19,0,2.3,clear sky
560,Tagusao,PH,9.1924,117.8141,82.26,73,98,5.55,overcast clouds
561,Pacifica,US,37.6138,-122.4869,78.24,85,20,26.46,mist
562,Luena,AO,-11.7833,19.9167,53.47,34,25,2.75,scattered clouds
563,Tanete,ID,-3.9443,119.7848,84.2,58,97,14.34,overcast clouds
564,Oksfjord,NO,70.2396,22.3479,48.38,80,99,5.95,overcast clouds
565,Homer,US,59.6425,-151.5483,58.77,73,100,5.75,overcast clouds
566,Lomovka,RU,53.9194,58.3672,51.24,75,1,3.22,clear sky
567,Olavarria,AR,-36.8927,-60.3225,54.01,91,100,4.79,moderate rain
568,Bairnsdale,AU,-37.8333,147.6167,55.71,57,97,12.39,overcast clouds
569,Paita,PE,-5.0892,-81.1144,63.95,86,11,15.5,few clouds
570,Baykit,RU,61.67,96.37,55.56,80,100,7.74,overcast clouds
571,Nara,JP,34.6851,135.8049,94.96,43,100,5.55,overcast clouds
572,Balclutha,NZ,-46.2339,169.75,52.34,61,100,5.59,overcast clouds
573,Tecoanapa,MX,16.5167,-98.75,80.85,78,100,4.94,overcast clouds
574,Inirida,CO,3.8653,-67.9239,72.86,93,83,1.92,broken clouds
575,Eyrarbakki,IS,63.863,-21.1481,46.45,77,2,10.38,clear sky
576,Shubarshi,KZ,48.5872,57.1869,76.41,33,0,16.73,clear sky
577,Hami,CN,42.8,93.45,85.77,16,0,14.65,clear sky
578,Sistranda,NO,63.7256,8.834,58.96,87,98,6.46,overcast clouds
579,Nedjo,ET,9.5046,35.5019,58.14,100,100,1.34,light rain
580,Dalian,CN,38.9122,121.6022,78.73,83,75,13.42,broken clouds
581,Whitianga,NZ,-36.8333,175.7,55.92,72,100,3.18,light rain
582,Kununurra,AU,-15.7667,128.7333,84.18,17,84,10.36,broken clouds
583,Gushikawa,JP,26.3544,127.8686,89.19,72,75,13.8,broken clouds
584,Darhan,MN,49.4867,105.9228,68.14,62,0,7.29,clear sky
585,Mackay,AU,-21.15,149.2,76.68,40,0,6.11,clear sky
586,Zaykovo,RU,57.5613,62.7568,50.45,77,2,4.54,clear sky
587,Solnechnyy,RU,50.7214,136.6319,71.46,62,41,3.69,scattered clouds
588,Swan Hill,AU,-35.3378,143.5544,55.99,66,66,12.15,broken clouds
589,Macas,EC,-2.3167,-78.1167,65.35,94,80,2.53,broken clouds
590,Nalgonda,IN,17.05,79.2667,76.33,83,100,8.97,overcast clouds
591,Bajil,YE,15.0584,43.2851,85.66,75,100,3.04,overcast clouds
592,Westport,US,41.1415,-73.3579,73.62,63,0,9.22,clear sky
593,Shawville,CA,45.6001,-76.4827,65.86,70,99,2.04,overcast clouds
594,Dover,US,39.1582,-75.5244,71.13,76,75,8.05,broken clouds
595,Nhulunbuy,AU,-12.2333,136.7667,81.21,34,0,19.57,clear sky
596,Ostrovnoy,RU,68.0531,39.5131,46.83,77,35,7.02,scattered clouds
597,Calabozo,VE,8.9242,-67.4293,71.06,97,95,0.49,overcast clouds
598,Lundazi,ZM,-12.2929,33.1782,58.33,69,4,4.81,clear sky
599,Galesong,ID,-5.3166,119.3661,84.22,64,68,2.17,broken clouds
600,Vizinga,RU,61.0749,50.1031,49.62,76,29,3.13,scattered clouds
601,Derzhavinsk,KZ,51.1,66.3167,59.38,53,5,10.54,clear sky
602,Yashan,CN,22.1975,109.9419,85.35,77,92,3.24,overcast clouds
603,Miyakonojo,JP,31.7333,131.0667,86.14,66,89,9.66,overcast clouds
604,Nyaunglebin,MM,17.95,96.7333,78.24,92,100,2.15,overcast clouds
605,Trincomalee,LK,8.5711,81.2335,80.98,74,71,4.92,broken clouds
606,Fuyang,CN,32.9,115.8167,97.56,47,100,14.7,overcast clouds
607,Tongling,CN,30.95,117.7833,96.35,48,100,10.67,overcast clouds
608,Balaipungut,ID,1.05,101.2833,82.33,75,100,2.98,overcast clouds
609,Sinnamary,GF,5.3833,-52.95,78.03,80,86,7.45,overcast clouds
610,Phalodi,IN,27.1333,72.3667,81.18,77,100,7.94,overcast clouds
611,Aksaray,TR,38.3726,34.0254,71.22,36,4,5.59,clear sky
612,Noyabrsk,RU,63.1994,75.4507,42.44,89,100,24.56,light rain
613,Maniitsoq,GL,65.4167,-52.9,42.87,94,100,19.73,light rain
614,Ola,RU,59.5833,151.2833,64.15,79,100,4.18,overcast clouds
615,Libenge,CD,3.65,18.6333,70.63,89,100,2.68,overcast clouds
616,Napier,NZ,-39.4833,176.9167,55.27,53,100,1.99,overcast clouds
617,Hirara,JP,24.8,125.2833,89.46,84,40,18.41,scattered clouds
618,Artigas,UY,-30.4,-56.4667,62.37,90,2,13.04,clear sky
619,Ahar,IR,38.4774,47.0699,65.37,48,0,3.6,clear sky
620,Cayenne,GF,4.9333,-52.3333,81.09,1,20,0.0,few clouds
621,Ca Mau,VN,9.1769,105.15,85.3,67,100,9.04,overcast clouds
622,Le Vauclin,MQ,14.5452,-60.8388,79.84,100,29,3.44,scattered clouds
623,Kutum,SD,14.2,24.6667,71.24,80,20,7.34,few clouds
624,Bandipur,NP,27.9333,84.4167,71.01,90,58,1.32,broken clouds
625,Mezen,RU,65.8522,44.24,48.72,94,49,4.29,scattered clouds
626,Arman,RU,59.7,150.1667,64.02,87,100,3.51,overcast clouds
627,Segezha,RU,63.7415,34.3222,57.94,79,8,2.95,clear sky
628,Alakurtti,RU,66.9672,30.3491,46.67,70,81,0.43,broken clouds
629,Yar-Sale,RU,66.8333,70.8333,45.77,72,66,19.71,broken clouds
630,Pangai,TO,-19.8,-174.35,78.91,78,20,17.27,few clouds
631,Lima,PE,-12.0432,-77.0282,60.91,83,100,12.66,mist
632,Sechura,PE,-5.5569,-80.8222,63.64,85,4,16.82,clear sky
633,Pithoragarh,IN,29.5833,80.2167,62.11,97,100,4.32,overcast clouds
634,Tagcatong,PH,9.0022,125.2569,84.22,66,100,1.36,moderate rain
635,Shakiso,ET,5.75,38.9167,59.41,89,100,1.14,overcast clouds
636,Krasnyy Oktyabr,RU,56.1167,38.8833,61.12,76,98,4.12,overcast clouds
637,Srednekolymsk,RU,67.45,153.6833,53.15,41,3,13.24,clear sky
638,Half Moon Bay,US,37.4636,-122.4286,82.02,79,100,26.46,mist
639,Wanganui,NZ,-39.9333,175.05,55.6,64,100,4.0,overcast clouds
640,Labytnangi,RU,66.6572,66.4183,48.27,70,13,9.51,few clouds
641,Royan,FR,45.6285,-1.0281,67.78,87,40,11.25,scattered clouds
642,Lhokseumawe,ID,5.1801,97.1507,80.82,79,62,2.93,moderate rain
643,Pedro Carbo,EC,-1.8333,-80.2333,69.89,84,30,5.97,scattered clouds
644,Takaungu,KE,-3.6837,39.8566,72.54,88,49,11.77,scattered clouds
645,Machali,CL,-34.1833,-70.6667,43.54,95,100,5.5,overcast clouds
646,Mokrousovo,RU,55.8103,66.7653,52.54,72,22,8.05,few clouds
647,Athabasca,CA,54.7169,-113.2854,72.01,64,52,1.63,broken clouds
648,Flinders,AU,-34.5833,150.8552,63.68,52,97,7.0,overcast clouds
649,Katangli,RU,51.7102,143.2326,56.71,88,98,5.32,overcast clouds
650,Naze,JP,28.3667,129.4833,86.92,72,16,11.52,few clouds
651,Simao,CN,22.7886,100.9748,73.22,84,48,2.84,scattered clouds
652,Inhambane,MZ,-23.865,35.3833,70.0,83,59,21.3,broken clouds
653,Margate,GB,51.3813,1.3862,68.7,87,100,7.45,overcast clouds
654,Polunochnoye,RU,60.8697,60.4153,45.36,75,85,3.62,overcast clouds
655,Escanaba,US,45.7453,-87.0646,64.36,94,100,0.0,overcast clouds
656,Anshan,CN,41.1236,122.99,68.22,95,100,8.3,overcast clouds
657,Machico,PT,32.7,-16.7667,74.01,79,20,2.3,few clouds
658,Dezhou,CN,37.4486,116.2925,84.65,81,83,5.19,broken clouds
659,Muzhi,RU,65.3667,64.6667,49.75,73,18,14.34,few clouds
660,Ulaangom,MN,49.9811,92.0667,67.42,47,0,3.42,clear sky
661,Beyneu,KZ,45.3167,55.2,84.31,24,0,5.7,clear sky
662,Aksarka,RU,66.5606,67.7975,48.36,64,51,12.01,broken clouds
663,Kilrush,IE,52.6397,-9.4833,62.35,94,88,5.46,overcast clouds
664,Khanpur,PK,28.6453,70.6567,86.36,66,46,5.28,light rain
665,Barra Dos Coqueiros,BR,-10.9089,-37.0386,75.22,78,75,16.11,broken clouds
666,Moranbah,AU,-22.0016,148.0466,68.54,27,0,2.33,clear sky
667,Pasighat,IN,28.0667,95.3333,78.91,95,91,3.27,overcast clouds
668,Washington,US,47.5001,-120.5015,89.89,23,57,5.32,broken clouds
669,Tete,MZ,-16.1564,33.5867,64.49,63,0,3.44,clear sky
670,Suez,EG,29.9737,32.5263,73.83,75,0,6.78,clear sky
671,Totness,SR,5.8833,-56.3167,78.64,82,59,10.2,broken clouds
672,Leshukonskoye,RU,64.8989,45.7622,49.98,94,33,4.09,scattered clouds
673,Chateau-Gontier,FR,47.8333,-0.7,65.12,93,90,5.44,overcast clouds
674,Vila,PT,42.0304,-8.1588,52.68,90,0,0.29,clear sky
675,Nelson Bay,AU,-32.7167,152.15,64.45,54,30,10.0,scattered clouds
676,Hjelset,NO,62.7833,7.4833,62.38,94,40,5.75,scattered clouds
677,Nizhniy Kuranakh,RU,58.8353,125.4869,60.96,71,95,3.89,overcast clouds
678,Kathmandu,NP,27.7167,85.3167,73.62,78,20,0.0,few clouds
679,Koslan,RU,63.4564,48.8989,54.57,65,89,6.4,overcast clouds
680,Locri,IT,38.2414,16.2623,71.31,74,0,6.71,clear sky
681,Garden City,US,42.3256,-83.331,71.15,68,60,3.29,broken clouds
682,Storforshei,NO,66.4043,14.5233,54.66,94,100,4.61,overcast clouds
683,Canutama,BR,-6.5339,-64.3831,79.18,64,48,3.27,scattered clouds
684,Imbituba,BR,-28.24,-48.6703,66.09,91,94,7.0,overcast clouds
685,Sesheke,ZM,-17.4759,24.2968,55.74,23,0,5.55,clear sky
686,Alta Floresta,BR,-9.8756,-56.0861,76.59,57,21,4.0,few clouds
687,Lerwick,GB,60.1545,-1.1494,57.2,96,100,2.13,overcast clouds
688,Tarimoro,MX,20.2833,-100.75,60.76,97,100,5.5,overcast clouds
689,Yulara,AU,-25.2406,130.9889,68.72,31,0,9.17,clear sky
690,Nuqui,CO,5.7125,-77.2708,77.52,89,100,4.52,moderate rain
691,Arkansas City,US,37.062,-97.0384,91.49,37,20,5.75,few clouds
692,San Francisco,US,37.7749,-122.4194,82.22,82,20,26.46,few clouds
693,Snasa,NO,64.2457,12.3778,59.38,89,98,5.32,overcast clouds
694,Robertsport,LR,6.7533,-11.3686,75.45,91,100,11.92,moderate rain
695,Thinadhoo,MV,0.5333,72.9333,83.19,73,32,11.1,scattered clouds
696,Katobu,ID,-4.9408,122.5276,83.41,57,46,9.04,scattered clouds
697,Itacoatiara,BR,-3.1431,-58.4442,75.63,83,90,1.92,overcast clouds
698,Marshfield,US,44.6689,-90.1718,64.54,83,71,4.85,broken clouds
699,Chara,RU,56.9064,118.2631,61.74,62,100,0.34,overcast clouds
700,Karachi,PK,24.9056,67.0822,82.22,83,75,8.05,smoke
701,Rosarito,MX,32.3333,-117.0333,84.67,72,10,5.75,clear sky
702,High Level,CA,58.5169,-117.136,71.71,68,40,3.44,scattered clouds
703,Rincon,US,32.296,-81.2354,79.86,61,20,6.91,few clouds
704,Aksay,RU,47.26,39.87,83.25,26,59,13.0,broken clouds
705,Mecca,SA,21.4267,39.8261,90.03,33,85,5.41,overcast clouds
